[
  {
    "stop_id":"landmark-96",
    "stop_code":null,
    "stop_name":"Choose nearest stop",
    "stop_desc":"",
    "stop_lat":45.491513,
    "stop_lon":-122.801462,
    "zone_id":"",
    "stop_url":"",
    "location_type":"1",
    "parent_station":"",
    "direction":"",
    "position":""

  },
  {
    "stop_id":"landmark-96",
    "stop_code":null,
    "stop_name":"Beaverton TC MAX Station",
    "stop_desc":"",
    "stop_lat":45.491513,
    "stop_lon":-122.801462,
    "zone_id":"",
    "stop_url":"",
    "location_type":"1",
    "parent_station":"",
    "direction":"",
    "position":""
  },
  {
    "stop_id":"landmark-95",
    "stop_code":null,
    "stop_name":"Beaverton Creek MAX Station",
    "stop_desc":"",
    "stop_lat":45.500417,
    "stop_lon":-122.833055,
    "zone_id":"",
    "stop_url":"",
    "location_type":"1",
    "parent_station":"",
    "direction":"",
    "position":""
  },
  {
    "stop_id":"landmark-97",
    "stop_code":null,
    "stop_name":"Beaverton Central MAX Station",
    "stop_desc":"",
    "stop_lat":45.490463,
    "stop_lon":-122.807104,
    "zone_id":"",
    "stop_url":"",
    "location_type":"1",
    "parent_station":"",
    "direction":"",
    "position":""
  },
  {
    "stop_id":"landmark-98",
    "stop_code":null,
    "stop_name":"Millikan Way MAX Station",
    "stop_desc":"",
    "stop_lat":45.495262,
    "stop_lon":-122.821522,
    "zone_id":"",
    "stop_url":"",
    "location_type":"1",
    "parent_station":"",
    "direction":"",
    "position":""
  },
  {
    "stop_id":"landmark-99",
    "stop_code":null,
    "stop_name":"Merlo Rd/SW 158th Ave MAX Station",
    "stop_desc":"",
    "stop_lat":45.505228,
    "stop_lon":-122.842148,
    "zone_id":"",
    "stop_url":"",
    "location_type":"1",
    "parent_station":"",
    "direction":"",
    "position":""
  },
  {
    "stop_id":"landmark-100",
    "stop_code":null,
    "stop_name":"Elmonica/SW 170th Ave MAX Station",
    "stop_desc":"",
    "stop_lat":45.509955,
    "stop_lon":-122.851463,
    "zone_id":"",
    "stop_url":"",
    "location_type":"1",
    "parent_station":"",
    "direction":"",
    "position":""
  },
  {
    "stop_id":"landmark-101",
    "stop_code":null,
    "stop_name":"Willow Creek/SW 185th Ave TC MAX Station",
    "stop_desc":"",
    "stop_lat":45.517246,
    "stop_lon":-122.870196,
    "zone_id":"",
    "stop_url":"",
    "location_type":"1",
    "parent_station":"",
    "direction":"",
    "position":""
  },
  {
    "stop_id":"landmark-102",
    "stop_code":null,
    "stop_name":"Quatama/NW 205th Ave MAX Station",
    "stop_desc":"",
    "stop_lat":45.523201,
    "stop_lon":-122.888821,
    "zone_id":"",
    "stop_url":"",
    "location_type":"1",
    "parent_station":"",
    "direction":"",
    "position":""
  },
  {
    "stop_id":"landmark-103",
    "stop_code":null,
    "stop_name":"Orenco/NW 231st Ave MAX Station",
    "stop_desc":"",
    "stop_lat":45.530278,
    "stop_lon":-122.915833,
    "zone_id":"",
    "stop_url":"",
    "location_type":"1",
    "parent_station":"",
    "direction":"",
    "position":""
  },
  {
    "stop_id":"landmark-104",
    "stop_code":null,
    "stop_name":"Fair Complex/Hillsboro Airport MAX Station",
    "stop_desc":"",
    "stop_lat":45.526983,
    "stop_lon":-122.946154,
    "zone_id":"",
    "stop_url":"",
    "location_type":"1",
    "parent_station":"",
    "direction":"",
    "position":""
  },
  {
    "stop_id":"landmark-106",
    "stop_code":null,
    "stop_name":"Washington/SE 12th Ave MAX Station",
    "stop_desc":"",
    "stop_lat":45.521166,
    "stop_lon":-122.96951,
    "zone_id":"",
    "stop_url":"",
    "location_type":"1",
    "parent_station":"",
    "direction":"",
    "position":""
  },
  {
    "stop_id":"landmark-108",
    "stop_code":null,
    "stop_name":"Hillsboro Central/SE 3rd TC MAX Station",
    "stop_desc":"",
    "stop_lat":45.521371,
    "stop_lon":-122.985261,
    "zone_id":"",
    "stop_url":"",
    "location_type":"1",
    "parent_station":"",
    "direction":"",
    "position":""
  },
  {
    "stop_id":"landmark-107",
    "stop_code":null,
    "stop_name":"Tuality Hospital/SE 8th Ave MAX Station",
    "stop_desc":"",
    "stop_lat":45.521301,
    "stop_lon":-122.978373,
    "zone_id":"",
    "stop_url":"",
    "location_type":"1",
    "parent_station":"",
    "direction":"",
    "position":""
  },
  {
    "stop_id":"landmark-112",
    "stop_code":null,
    "stop_name":"Goose Hollow/SW Jefferson St MAX Station",
    "stop_desc":"",
    "stop_lat":45.518113,
    "stop_lon":-122.693817,
    "zone_id":"",
    "stop_url":"",
    "location_type":"1",
    "parent_station":"",
    "direction":"",
    "position":""
  },
  {
    "stop_id":"landmark-113",
    "stop_code":null,
    "stop_name":"Washington Park MAX Station",
    "stop_desc":"",
    "stop_lat":45.510657,
    "stop_lon":-122.716792,
    "zone_id":"",
    "stop_url":"",
    "location_type":"1",
    "parent_station":"",
    "direction":"",
    "position":""
  },
  {
    "stop_id":"landmark-110",
    "stop_code":null,
    "stop_name":"Old Town/Chinatown MAX Station",
    "stop_desc":"",
    "stop_lat":45.524937,
    "stop_lon":-122.67141,
    "zone_id":"",
    "stop_url":"",
    "location_type":"1",
    "parent_station":"",
    "direction":"",
    "position":""
  },
  {
    "stop_id":"landmark-137",
    "stop_code":null,
    "stop_name":"Rose Quarter TC MAX Station",
    "stop_desc":"",
    "stop_lat":45.530145,
    "stop_lon":-122.665225,
    "zone_id":"",
    "stop_url":"",
    "location_type":"1",
    "parent_station":"",
    "direction":"",
    "position":""
  },
  {
    "stop_id":"landmark-119",
    "stop_code":null,
    "stop_name":"Convention Center MAX Station",
    "stop_desc":"",
    "stop_lat":45.530095,
    "stop_lon":-122.662224,
    "zone_id":"",
    "stop_url":"",
    "location_type":"1",
    "parent_station":"",
    "direction":"",
    "position":""
  },
  {
    "stop_id":"landmark-120",
    "stop_code":null,
    "stop_name":"NE 7th Ave MAX Station",
    "stop_desc":"",
    "stop_lat":45.530103,
    "stop_lon":-122.658009,
    "zone_id":"",
    "stop_url":"",
    "location_type":"1",
    "parent_station":"",
    "direction":"",
    "position":""
  },
  {
    "stop_id":"landmark-122",
    "stop_code":null,
    "stop_name":"Hollywood/NE 42nd Ave TC MAX Station",
    "stop_desc":"",
    "stop_lat":45.532864,
    "stop_lon":-122.621038,
    "zone_id":"",
    "stop_url":"",
    "location_type":"1",
    "parent_station":"",
    "direction":"",
    "position":""
  },
  {
    "stop_id":"landmark-123",
    "stop_code":null,
    "stop_name":"NE 82nd Ave MAX Station",
    "stop_desc":"",
    "stop_lat":45.533349,
    "stop_lon":-122.578116,
    "zone_id":"",
    "stop_url":"",
    "location_type":"1",
    "parent_station":"",
    "direction":"",
    "position":""
  },
  {
    "stop_id":"landmark-135",
    "stop_code":null,
    "stop_name":"Gateway/NE 99th Ave TC MAX Station",
    "stop_desc":"",
    "stop_lat":45.530554,
    "stop_lon":-122.563602,
    "zone_id":"",
    "stop_url":"",
    "location_type":"1",
    "parent_station":"",
    "direction":"",
    "position":""
  },
  {
    "stop_id":"landmark-134",
    "stop_code":null,
    "stop_name":"E 102nd Ave MAX Station",
    "stop_desc":"",
    "stop_lat":45.522636,
    "stop_lon":-122.558279,
    "zone_id":"",
    "stop_url":"",
    "location_type":"1",
    "parent_station":"",
    "direction":"",
    "position":""
  },
  {
    "stop_id":"landmark-124",
    "stop_code":null,
    "stop_name":"E 148th Ave MAX Station",
    "stop_desc":"",
    "stop_lat":45.52229,
    "stop_lon":-122.510651,
    "zone_id":"",
    "stop_url":"",
    "location_type":"1",
    "parent_station":"",
    "direction":"",
    "position":""
  },
  {
    "stop_id":"landmark-132",
    "stop_code":null,
    "stop_name":"E 172nd Ave MAX Station",
    "stop_desc":"",
    "stop_lat":45.522094,
    "stop_lon":-122.486156,
    "zone_id":"",
    "stop_url":"",
    "location_type":"1",
    "parent_station":"",
    "direction":"",
    "position":""
  },
  {
    "stop_id":"landmark-126",
    "stop_code":null,
    "stop_name":"E 181st Ave MAX Station",
    "stop_desc":"",
    "stop_lat":45.521998,
    "stop_lon":-122.477108,
    "zone_id":"",
    "stop_url":"",
    "location_type":"1",
    "parent_station":"",
    "direction":"",
    "position":""
  },
  {
    "stop_id":"landmark-128",
    "stop_code":null,
    "stop_name":"Ruby Junction/E 197th Ave MAX Station",
    "stop_desc":"",
    "stop_lat":45.516039,
    "stop_lon":-122.460147,
    "zone_id":"",
    "stop_url":"",
    "location_type":"1",
    "parent_station":"",
    "direction":"",
    "position":""
  },
  {
    "stop_id":"landmark-129",
    "stop_code":null,
    "stop_name":"Gresham City Hall MAX Station",
    "stop_desc":"",
    "stop_lat":45.505834,
    "stop_lon":-122.436056,
    "zone_id":"",
    "stop_url":"",
    "location_type":"1",
    "parent_station":"",
    "direction":"",
    "position":""
  },
  {
    "stop_id":"landmark-130",
    "stop_code":null,
    "stop_name":"Gresham Central TC MAX Station",
    "stop_desc":"",
    "stop_lat":45.502589,
    "stop_lon":-122.426996,
    "zone_id":"",
    "stop_url":"",
    "location_type":"1",
    "parent_station":"",
    "direction":"",
    "position":""
  },
  {
    "stop_id":"landmark-127",
    "stop_code":null,
    "stop_name":"Rockwood/E 188th Ave MAX Station",
    "stop_desc":"",
    "stop_lat":45.52056,
    "stop_lon":-122.470815,
    "zone_id":"",
    "stop_url":"",
    "location_type":"1",
    "parent_station":"",
    "direction":"",
    "position":""
  },
  {
    "stop_id":"landmark-125",
    "stop_code":null,
    "stop_name":"E 162nd Ave MAX Station",
    "stop_desc":"",
    "stop_lat":45.522169,
    "stop_lon":-122.496463,
    "zone_id":"",
    "stop_url":"",
    "location_type":"1",
    "parent_station":"",
    "direction":"",
    "position":""
  },
  {
    "stop_id":"landmark-133",
    "stop_code":null,
    "stop_name":"E 122nd Ave MAX Station",
    "stop_desc":"",
    "stop_lat":45.522501,
    "stop_lon":-122.537763,
    "zone_id":"",
    "stop_url":"",
    "location_type":"1",
    "parent_station":"",
    "direction":"",
    "position":""
  },
  {
    "stop_id":"landmark-136",
    "stop_code":null,
    "stop_name":"NE 60th Ave MAX Station",
    "stop_desc":"",
    "stop_lat":45.528627,
    "stop_lon":-122.603023,
    "zone_id":"",
    "stop_url":"",
    "location_type":"1",
    "parent_station":"",
    "direction":"",
    "position":""
  },
  {
    "stop_id":"landmark-121",
    "stop_code":null,
    "stop_name":"Lloyd Center/NE 11th Ave MAX Station",
    "stop_desc":"",
    "stop_lat":45.530107,
    "stop_lon":-122.653986,
    "zone_id":"",
    "stop_url":"",
    "location_type":"1",
    "parent_station":"",
    "direction":"",
    "position":""
  },
  {
    "stop_id":"landmark-138",
    "stop_code":null,
    "stop_name":"Oak/SW 1st Ave MAX Station",
    "stop_desc":"",
    "stop_lat":45.520074,
    "stop_lon":-122.672346,
    "zone_id":"",
    "stop_url":"",
    "location_type":"1",
    "parent_station":"",
    "direction":"",
    "position":""
  },
  {
    "stop_id":"landmark-92",
    "stop_code":null,
    "stop_name":"Delta Park/Vanport MAX Station",
    "stop_desc":"",
    "stop_lat":45.596122,
    "stop_lon":-122.685623,
    "zone_id":"",
    "stop_url":"",
    "location_type":"1",
    "parent_station":"",
    "direction":"",
    "position":""
  },
  {
    "stop_id":"landmark-84",
    "stop_code":null,
    "stop_name":"Kenton/N Denver Ave MAX Station",
    "stop_desc":"",
    "stop_lat":45.58386,
    "stop_lon":-122.685925,
    "zone_id":"",
    "stop_url":"",
    "location_type":"1",
    "parent_station":"",
    "direction":"",
    "position":""
  },
  {
    "stop_id":"landmark-86",
    "stop_code":null,
    "stop_name":"Rosa Parks MAX Station",
    "stop_desc":"",
    "stop_lat":45.569873,
    "stop_lon":-122.682153,
    "zone_id":"",
    "stop_url":"",
    "location_type":"1",
    "parent_station":"",
    "direction":"",
    "position":""
  },
  {
    "stop_id":"landmark-91",
    "stop_code":null,
    "stop_name":"N Killingsworth St MAX Station",
    "stop_desc":"",
    "stop_lat":45.562668,
    "stop_lon":-122.682243,
    "zone_id":"",
    "stop_url":"",
    "location_type":"1",
    "parent_station":"",
    "direction":"",
    "position":""
  },
  {
    "stop_id":"landmark-87",
    "stop_code":null,
    "stop_name":"Overlook Park MAX Station",
    "stop_desc":"",
    "stop_lat":45.548709,
    "stop_lon":-122.681011,
    "zone_id":"",
    "stop_url":"",
    "location_type":"1",
    "parent_station":"",
    "direction":"",
    "position":""
  },
  {
    "stop_id":"landmark-88",
    "stop_code":null,
    "stop_name":"Interstate/Rose Quarter MAX Station",
    "stop_desc":"",
    "stop_lat":45.530187,
    "stop_lon":-122.667833,
    "zone_id":"",
    "stop_url":"",
    "location_type":"1",
    "parent_station":"",
    "direction":"",
    "position":""
  },
  {
    "stop_id":"landmark-89",
    "stop_code":null,
    "stop_name":"Albina/Mississippi MAX Station",
    "stop_desc":"",
    "stop_lat":45.539555,
    "stop_lon":-122.675497,
    "zone_id":"",
    "stop_url":"",
    "location_type":"1",
    "parent_station":"",
    "direction":"",
    "position":""
  },
  {
    "stop_id":"landmark-85",
    "stop_code":null,
    "stop_name":"N Lombard TC MAX Station",
    "stop_desc":"",
    "stop_lat":45.577113,
    "stop_lon":-122.682097,
    "zone_id":"",
    "stop_url":"",
    "location_type":"1",
    "parent_station":"",
    "direction":"",
    "position":""
  },
  {
    "stop_id":"landmark-143",
    "stop_code":null,
    "stop_name":"Sunset TC MAX Station",
    "stop_desc":"",
    "stop_lat":45.510241,
    "stop_lon":-122.781028,
    "zone_id":"",
    "stop_url":"",
    "location_type":"1",
    "parent_station":"",
    "direction":"",
    "position":""
  },
  {
    "stop_id":"landmark-93",
    "stop_code":null,
    "stop_name":"Providence Park MAX Station",
    "stop_desc":"",
    "stop_lat":45.521577,
    "stop_lon":-122.689851,
    "zone_id":"",
    "stop_url":"",
    "location_type":"1",
    "parent_station":"",
    "direction":"",
    "position":""
  },
  {
    "stop_id":"landmark-90",
    "stop_code":null,
    "stop_name":"N Prescott St MAX Station",
    "stop_desc":"",
    "stop_lat":45.555211,
    "stop_lon":-122.682302,
    "zone_id":"",
    "stop_url":"",
    "location_type":"1",
    "parent_station":"",
    "direction":"",
    "position":""
  },
  {
    "stop_id":"landmark-105",
    "stop_code":null,
    "stop_name":"Hawthorn Farm MAX Station",
    "stop_desc":"",
    "stop_lat":45.529966,
    "stop_lon":-122.93075,
    "zone_id":"",
    "stop_url":"",
    "location_type":"1",
    "parent_station":"",
    "direction":"",
    "position":""
  },
  {
    "stop_id":"landmark-118",
    "stop_code":null,
    "stop_name":"Skidmore Fountain MAX Station",
    "stop_desc":"",
    "stop_lat":45.522984,
    "stop_lon":-122.671323,
    "zone_id":"",
    "stop_url":"",
    "location_type":"1",
    "parent_station":"",
    "direction":"",
    "position":""
  },
  {
    "stop_id":"landmark-144",
    "stop_code":null,
    "stop_name":"Parkrose/Sumner TC MAX Station",
    "stop_desc":"",
    "stop_lat":45.559015,
    "stop_lon":-122.56562,
    "zone_id":"",
    "stop_url":"",
    "location_type":"1",
    "parent_station":"",
    "direction":"",
    "position":""
  },
  {
    "stop_id":"landmark-94",
    "stop_code":null,
    "stop_name":"Kings Hill/SW Salmon St MAX Station",
    "stop_desc":"",
    "stop_lat":45.5204,
    "stop_lon":-122.691163,
    "zone_id":"",
    "stop_url":"",
    "location_type":"1",
    "parent_station":"",
    "direction":"",
    "position":""
  },
  {
    "stop_id":"landmark-111",
    "stop_code":null,
    "stop_name":"Cascades MAX Station",
    "stop_desc":"",
    "stop_lat":45.572233,
    "stop_lon":-122.557995,
    "zone_id":"",
    "stop_url":"",
    "location_type":"1",
    "parent_station":"",
    "direction":"",
    "position":""
  },
  {
    "stop_id":"landmark-145",
    "stop_code":null,
    "stop_name":"Mt Hood Ave MAX Station",
    "stop_desc":"",
    "stop_lat":45.57711,
    "stop_lon":-122.567146,
    "zone_id":"",
    "stop_url":"",
    "location_type":"1",
    "parent_station":"",
    "direction":"",
    "position":""
  },
  {
    "stop_id":"landmark-1522",
    "stop_code":null,
    "stop_name":"SE Main St MAX Station",
    "stop_desc":"",
    "stop_lat":45.514256,
    "stop_lon":-122.56444,
    "zone_id":"",
    "stop_url":"",
    "location_type":"1",
    "parent_station":"",
    "direction":"",
    "position":""
  },
  {
    "stop_id":"landmark-1521",
    "stop_code":null,
    "stop_name":"SE Division St MAX Station",
    "stop_desc":"",
    "stop_lat":45.503365,
    "stop_lon":-122.566624,
    "zone_id":"",
    "stop_url":"",
    "location_type":"1",
    "parent_station":"",
    "direction":"",
    "position":""
  },
  {
    "stop_id":"landmark-1520",
    "stop_code":null,
    "stop_name":"SE Powell Blvd MAX Station",
    "stop_desc":"",
    "stop_lat":45.495747,
    "stop_lon":-122.566184,
    "zone_id":"",
    "stop_url":"",
    "location_type":"1",
    "parent_station":"",
    "direction":"",
    "position":""
  },
  {
    "stop_id":"landmark-1519",
    "stop_code":null,
    "stop_name":"SE Holgate Blvd MAX Station",
    "stop_desc":"",
    "stop_lat":45.491118,
    "stop_lon":-122.566272,
    "zone_id":"",
    "stop_url":"",
    "location_type":"1",
    "parent_station":"",
    "direction":"",
    "position":""
  },
  {
    "stop_id":"landmark-1518",
    "stop_code":null,
    "stop_name":"Lents Town Center/Foster Rd MAX Station",
    "stop_desc":"",
    "stop_lat":45.480437,
    "stop_lon":-122.566808,
    "zone_id":"",
    "stop_url":"",
    "location_type":"1",
    "parent_station":"",
    "direction":"",
    "position":""
  },
  {
    "stop_id":"landmark-1517",
    "stop_code":null,
    "stop_name":"SE Flavel St MAX Station",
    "stop_desc":"",
    "stop_lat":45.467835,
    "stop_lon":-122.566652,
    "zone_id":"",
    "stop_url":"",
    "location_type":"1",
    "parent_station":"",
    "direction":"",
    "position":""
  },
  {
    "stop_id":"landmark-1515",
    "stop_code":null,
    "stop_name":"SE Fuller Rd MAX Station",
    "stop_desc":"",
    "stop_lat":45.453388,
    "stop_lon":-122.573617,
    "zone_id":"",
    "stop_url":"",
    "location_type":"1",
    "parent_station":"",
    "direction":"",
    "position":""
  },
  {
    "stop_id":"landmark-2563",
    "stop_code":null,
    "stop_name":"Tigard TC WES Station",
    "stop_desc":"",
    "stop_lat":45.430084,
    "stop_lon":-122.769663,
    "zone_id":"",
    "stop_url":"",
    "location_type":"1",
    "parent_station":"",
    "direction":"",
    "position":""
  },
  {
    "stop_id":"landmark-2566",
    "stop_code":null,
    "stop_name":"Civic Drive MAX Station",
    "stop_desc":"",
    "stop_lat":45.508106,
    "stop_lon":-122.44151,
    "zone_id":"",
    "stop_url":"",
    "location_type":"1",
    "parent_station":"",
    "direction":"",
    "position":""
  },
  {
    "stop_id":"landmark-2551",
    "stop_code":null,
    "stop_name":"Lincoln St/SW 3rd Ave MAX Station",
    "stop_desc":"",
    "stop_lat":45.50792,
    "stop_lon":-122.680513,
    "zone_id":"",
    "stop_url":"",
    "location_type":"1",
    "parent_station":"",
    "direction":"",
    "position":""
  },
  {
    "stop_id":"landmark-2552",
    "stop_code":null,
    "stop_name":"South Waterfront/SW Moody MAX Station",
    "stop_desc":"",
    "stop_lat":45.502734,
    "stop_lon":-122.671252,
    "zone_id":"",
    "stop_url":"",
    "location_type":"1",
    "parent_station":"",
    "direction":"",
    "position":""
  },
  {
    "stop_id":"landmark-2553",
    "stop_code":null,
    "stop_name":"Omsi/SE Water MAX Station",
    "stop_desc":"",
    "stop_lat":45.506545,
    "stop_lon":-122.662753,
    "zone_id":"",
    "stop_url":"",
    "location_type":"1",
    "parent_station":"",
    "direction":"",
    "position":""
  },
  {
    "stop_id":"landmark-2554",
    "stop_code":null,
    "stop_name":"Clinton St/SE 12th Ave MAX Station",
    "stop_desc":"",
    "stop_lat":45.502777,
    "stop_lon":-122.653205,
    "zone_id":"",
    "stop_url":"",
    "location_type":"1",
    "parent_station":"",
    "direction":"",
    "position":""
  },
  {
    "stop_id":"landmark-2555",
    "stop_code":null,
    "stop_name":"SE 17th Ave & Rhine St MAX Station",
    "stop_desc":"",
    "stop_lat":45.497803,
    "stop_lon":-122.648153,
    "zone_id":"",
    "stop_url":"",
    "location_type":"1",
    "parent_station":"",
    "direction":"",
    "position":""
  },
  {
    "stop_id":"landmark-2556",
    "stop_code":null,
    "stop_name":"SE 17th Ave & Holgate Blvd MAX Station",
    "stop_desc":"",
    "stop_lat":45.49061,
    "stop_lon":-122.648386,
    "zone_id":"",
    "stop_url":"",
    "location_type":"1",
    "parent_station":"",
    "direction":"",
    "position":""
  },
  {
    "stop_id":"landmark-2557",
    "stop_code":null,
    "stop_name":"SE Bybee Blvd MAX Station",
    "stop_desc":"",
    "stop_lat":45.47451,
    "stop_lon":-122.639984,
    "zone_id":"",
    "stop_url":"",
    "location_type":"1",
    "parent_station":"",
    "direction":"",
    "position":""
  },
  {
    "stop_id":"landmark-2558",
    "stop_code":null,
    "stop_name":"SE Tacoma/Johnson Creek MAX Station",
    "stop_desc":"",
    "stop_lat":45.463125,
    "stop_lon":-122.637773,
    "zone_id":"",
    "stop_url":"",
    "location_type":"1",
    "parent_station":"",
    "direction":"",
    "position":""
  },
  {
    "stop_id":"landmark-2559",
    "stop_code":null,
    "stop_name":"Milwaukie/Main St MAX Station",
    "stop_desc":"",
    "stop_lat":45.44114,
    "stop_lon":-122.639819,
    "zone_id":"",
    "stop_url":"",
    "location_type":"1",
    "parent_station":"",
    "direction":"",
    "position":""
  },
  {
    "stop_id":"landmark-2560",
    "stop_code":null,
    "stop_name":"SE Park Ave MAX Station",
    "stop_desc":"",
    "stop_lat":45.430526,
    "stop_lon":-122.635097,
    "zone_id":"",
    "stop_url":"",
    "location_type":"1",
    "parent_station":"",
    "direction":"",
    "position":""
  }
]
